{
"type": "FeatureCollection",
"name": "Boston_Police_Stations",
"crs": { "type": "name", "properties": { "name": "urn:ogc:def:crs:OGC:1.3:CRS84" } },
"features": [
{ "type": "Feature", "properties": { "OBJECTID": 1, "BLDG_ID": "Bos_1809107000_B0", "BID": 100639, "ADDRESS": "1249 Hyde Park Ave", "POINT_X": 757882.71611959999, "POINT_Y": 2918709.8081791801, "NAME": "District E-18 Police Station", "NEIGHBORHOOD": "Hyde Park", "CITY": "Boston", "ZIP": "02136", "FT_SQFT": 8585, "STORY_HT": 2.0, "PARCEL_ID": "1809107000", "District": "E18" }, "geometry": { "type": "Point", "coordinates": [ -71.124269436436464, 42.25648154053102 ] } },
{ "type": "Feature", "properties": { "OBJECTID": 2, "BLDG_ID": "Bos_2005719000_B0", "BID": 112112, "ADDRESS": "1708 Centre St", "POINT_X": 751313.45596418995, "POINT_Y": 2929725.2274212702, "NAME": "District E-5 Police Station", "NEIGHBORHOOD": "West Roxbury", "CITY": "Boston", "ZIP": "02132", "FT_SQFT": 7708, "STORY_HT": 2.0, "PARCEL_ID": "2005719000", "District": "E5" }, "geometry": { "type": "Point", "coordinates": [ -71.148367753500523, 42.286785594068618 ] } },
{ "type": "Feature", "properties": { "OBJECTID": 3, "BLDG_ID": "Bos_0105699000_B0", "BID": 131503, "ADDRESS": "69 Paris St", "POINT_X": 780827.98945469002, "POINT_Y": 2960576.8481326099, "NAME": "District A-7 Police Station", "NEIGHBORHOOD": "East Boston", "CITY": "Boston", "ZIP": "02128", "FT_SQFT": 5063, "STORY_HT": 2.0, "PARCEL_ID": "0105699000", "District": "A7" }, "geometry": { "type": "Point", "coordinates": [ -71.038676422262171, 42.371057781911773 ] } },
{ "type": "Feature", "properties": { "OBJECTID": 4, "BLDG_ID": "Bos_0302626000_B0", "BID": 136171, "ADDRESS": "40 Sudbury St", "POINT_X": 775000.19336753001, "POINT_Y": 2957181.4110258501, "NAME": "District A-1 Police Station", "NEIGHBORHOOD": "Boston", "CITY": "Boston", "ZIP": "02114", "FT_SQFT": 6882, "STORY_HT": 5.0, "PARCEL_ID": "0302626000", "District": "A1" }, "geometry": { "type": "Point", "coordinates": [ -71.06030726710226, 42.361825124838234 ] } },
{ "type": "Feature", "properties": { "OBJECTID": 5, "BLDG_ID": "Bos_2202387000_B0", "BID": 145004, "ADDRESS": "301 Washington St", "POINT_X": 750621.84612693998, "POINT_Y": 2952538.5820569401, "NAME": "District D-14 Police Station", "NEIGHBORHOOD": "Brighton", "CITY": "Boston", "ZIP": "02135", "FT_SQFT": 8712, "STORY_HT": 2.0, "PARCEL_ID": "2202387000", "District": "D14" }, "geometry": { "type": "Point", "coordinates": [ -71.150578318124275, 42.349394510979906 ] } },
{ "type": "Feature", "properties": { "OBJECTID": 6, "BLDG_ID": "Bos_0202644020_B0", "BID": 148316, "ADDRESS": "20 Vine St", "POINT_X": 776123.77510986, "POINT_Y": 2962523.0437152698, "NAME": "District A-15 Police Station", "NEIGHBORHOOD": "Charlestown", "CITY": "Boston", "ZIP": "02129", "FT_SQFT": null, "STORY_HT": null, "PARCEL_ID": "0202644020", "District": "A15" }, "geometry": { "type": "Point", "coordinates": [ -71.056047130896275, 42.376466657027436 ] } },
{ "type": "Feature", "properties": { "OBJECTID": 7, "BLDG_ID": "Bos_0600118000_B0", "BID": 154919, "ADDRESS": "101 W Broadway", "POINT_X": 776491.05291861005, "POINT_Y": 2949659.6550720199, "NAME": "District C-6 Police Station", "NEIGHBORHOOD": "South Boston", "CITY": "Boston", "ZIP": "02127", "FT_SQFT": 8528, "STORY_HT": 2.0, "PARCEL_ID": "0600118000", "District": "C6" }, "geometry": { "type": "Point", "coordinates": [ -71.054936284887035, 42.341164040750456 ] } },
{ "type": "Feature", "properties": { "OBJECTID": 8, "BLDG_ID": "Bos_0801170010_B0", "BID": 162100, "ADDRESS": "650 Harrison Ave", "POINT_X": 772627.27718161, "POINT_Y": 2949011.4112897702, "NAME": "District D-4 Police Station", "NEIGHBORHOOD": "Boston", "CITY": "Boston", "ZIP": "02118", "FT_SQFT": 12382, "STORY_HT": 3.0, "PARCEL_ID": "0801170010", "District": "D4" }, "geometry": { "type": "Point", "coordinates": [ -71.069239757003189, 42.339439673099996 ] } },
{ "type": "Feature", "properties": { "OBJECTID": 9, "BLDG_ID": "Bos_0902771010_B0", "BID": 163892, "ADDRESS": "One Schroeder Plz", "POINT_X": 766821.65559076995, "POINT_Y": 2947070.5513263498, "NAME": "Boston Police Headquarters", "NEIGHBORHOOD": "Roxbury", "CITY": "Boston", "ZIP": "02120", "FT_SQFT": 194000, "STORY_HT": 4.0, "PARCEL_ID": "0902771010", "District": null }, "geometry": { "type": "Point", "coordinates": [ -71.090747519512831, 42.334192330772368 ] } },
{ "type": "Feature", "properties": { "OBJECTID": 10, "BLDG_ID": "Bos_1201261000_B0", "BID": 176508, "ADDRESS": "2400 Washington St", "POINT_X": 768200.91759603005, "POINT_Y": 2944961.00797327, "NAME": "District B-2 Police Station", "NEIGHBORHOOD": "Roxbury", "CITY": "Boston", "ZIP": "02119", "FT_SQFT": 10809, "STORY_HT": 3.0, "PARCEL_ID": "1201261000", "District": "B2" }, "geometry": { "type": "Point", "coordinates": [ -71.085684348920211, 42.32838538900802 ] } },
{ "type": "Feature", "properties": { "OBJECTID": 11, "BLDG_ID": "Bos_1102261000_B0", "BID": 180965, "ADDRESS": "3345 Washington St", "POINT_X": 763106.94123543997, "POINT_Y": 2938135.5842881799, "NAME": "District E-13 Police Station", "NEIGHBORHOOD": "Jamaica Plain", "CITY": "Boston", "ZIP": "02130", "FT_SQFT": 8312, "STORY_HT": 2.0, "PARCEL_ID": "1102261000", "District": "E13" }, "geometry": { "type": "Point", "coordinates": [ -71.104639216747557, 42.309722445244333 ] } },
{ "type": "Feature", "properties": { "OBJECTID": 12, "BLDG_ID": "Bos_1404623000_B0", "BID": 186089, "ADDRESS": "1165 Blue Hill Ave", "POINT_X": 766649.86886086001, "POINT_Y": 2929044.0516182599, "NAME": "District B-3 Police Station", "NEIGHBORHOOD": "Mattapan", "CITY": "Boston", "ZIP": "02124", "FT_SQFT": 9740, "STORY_HT": 1.5, "PARCEL_ID": "1404623000", "District": "B3" }, "geometry": { "type": "Point", "coordinates": [ -71.091701991396377, 42.284728929101142 ] } },
{ "type": "Feature", "properties": { "OBJECTID": 13, "BLDG_ID": "Bos_1600673000_B0", "BID": 189445, "ADDRESS": "40 Gibson St", "POINT_X": 775429.01239178004, "POINT_Y": 2933947.9115611902, "NAME": "District C-11 Police Station", "NEIGHBORHOOD": "Dorchester", "CITY": "Boston", "ZIP": "02122", "FT_SQFT": 15338, "STORY_HT": 2.0, "PARCEL_ID": "1600673000", "District": "C11" }, "geometry": { "type": "Point", "coordinates": [ -71.059164920560917, 42.298065504218705 ] } }
]
}
